[
  {
    "name": "Albergue Plan Protege Calle",
    "address": "Azapa, Arica, Arica y Parinacota, Chile",
    "institution": "COFEDUC",
    "hours": "24 hrs.",
    "places": "20",
    "coordinates": {"latitude": -18.5267348, "longitude": -70.166358}
  },
  {
    "name": "Albergue",
    "address": "Tucapel 2518, Arica, Arica y Parinacota, Chile",
    "institution": "Corporación Maymuru",
    "hours": "24 hrs.",
    "places": "20",
    "coordinates": {"latitude": -18.475353, "longitude": -70.2905841}
  },
  {
    "name": "Albergue",
    "address": "Pje 11 1104, Arica, Arica y Parinacota, Chile",
    "institution": "COFEDUC",
    "hours": "24 hrs.",
    "places": "20",
    "coordinates": {"latitude": -18.4724203, "longitude": -70.3012499}
  },
  {
    "name": "Albergue",
    "address": "Cerro Sta Rosa 3435, Alto Hospicio, Tarapacá, Chile",
    "institution": "Municipalidad Alto Hospicio",
    "hours": "24 hrs.",
    "places": "20",
    "coordinates": {"latitude": -20.2727157, "longitude": -70.1042596}
  },
  {
    "name": "Albergue",
    "address": "Las Zampoñas 2205, Iquique, Tarapacá, Chile",
    "institution": "Fundacion UNAP",
    "hours": "24 hrs.",
    "places": "20",
    "coordinates": {"latitude": -20.2341151, "longitude": -70.1340937}
  },
  {
    "name": "Albergue PI",
    "address": "Achao 6000, Antofagasta, Chile",
    "institution": "Comunidad Terapéutica Tabor",
    "hours": "24 hrs.",
    "places": "20",
    "coordinates": {"latitude": -23.6182822, "longitude": -70.37931859999999}
  },
  {
    "name": "Albergue Plan Protege",
    "address": "Av. Pedro Aguirre Cerda 9479, Antofagasta, antofagasta, Chile",
    "institution": "Comunidad Terapéutica Tabor",
    "hours": "24 hrs.",
    "places": "20",
    "coordinates": {"latitude": -23.5788693, "longitude": -70.3910356}
  },
  {
    "name": "Albergue",
    "address": "Baquedano 1139, Calama, Antofagasta, Chile",
    "institution": "Municipalidad de Calama",
    "hours": "24 hrs.",
    "places": "20",
    "coordinates": {"latitude": -22.4528341, "longitude": -68.9168358}
  },
  {
    "name": "albergue Protege",
    "address": "Las Brisas 6443, Copiapó, Atacama, Chile",
    "institution": "Fundación Cuatro Esquinas",
    "hours": "24 hrs.",
    "places": "20",
    "coordinates": {"latitude": -27.4095269, "longitude": -70.2828492}
  },
  {
    "name": "Abergue Plan Portege Calle",
    "address": "Miraflores 528, Coquimbo, coquimbo,Chile",
    "institution": "Municipalidad de Coquimbo",
    "hours": "24 hrs.",
    "places": "20",
    "coordinates": {"latitude": -29.9669281, "longitude": -71.3284383}
  },
  {
    "name": "Albergue",
    "address": "Las Casas, La Serena, Coquimbo, Chile",
    "institution": "Gobernación del Elqui",
    "hours": "24 hrs.",
    "places": "20",
    "coordinates": {"latitude": -29.9043383, "longitude": -71.24454759999999}
  },
  {
    "name": "Albergue",
    "address": "Socos 64, Ovalle, Coquimbo, Chile",
    "institution": "Gobernación del Limarí",
    "hours": "24 hrs.",
    "places": "20",
    "coordinates": {"latitude": -30.6000795, "longitude": -71.2000092}
  },
  {
    "name": "Albergue",
    "address": "Carrera 1075, La Calera, Calera, Valparaíso, Chile",
    "institution": "Municipalidad de  La Calera",
    "hours": "24 hrs.",
    "places": "20",
    "coordinates": {"latitude": -32.787776, "longitude": -71.1956805}
  },
  {
    "name": "Albergue",
    "address": "Echaurren, Limache, Valparaíso, Chile",
    "institution": "Municipalidad de Limache",
    "hours": "24 hrs.",
    "places": "20",
    "coordinates": {"latitude": -33.0036965, "longitude": -71.2661954}
  },
  {
    "name": "Albergue",
    "address": "Presidente Doctor Salvador Allende 131, Los Andes, Valparaíso, Chile",
    "institution": "Municipalidad de Los Andes",
    "hours": "24 hrs.",
    "places": "20",
    "coordinates": {"latitude": -32.8231895, "longitude": -70.60868099999999}
  },
  {
    "name": "Albergue",
    "address": "Blanco Encalada 158, Quillota, Valparaíso, Chile",
    "institution": "Municipalidad de Quillota",
    "hours": "24 hrs.",
    "places": "20",
    "coordinates": {"latitude": -32.8788162, "longitude": -71.2441417}
  },
  {
    "name": "Albergue Protege",
    "address": "El Retiro 752, Quilpué, Valparaíso, Chile",
    "institution": "Fundación Amalegría",
    "hours": "24 hrs.",
    "places": "20",
    "coordinates": {"latitude": -33.0351715, "longitude": -71.44209219999999}
  },
  {
    "name": "Albergue",
    "address": "Ramón Ángel Jara, Quilpué, Valparaíso, Chile",
    "institution": "Municipalidad de Quilpué",
    "hours": "24 hrs.",
    "places": "20",
    "coordinates": {"latitude": -33.0593822, "longitude": -71.4022526}
  },
  {
    "name": "Albergue",
    "address": "Veintiuno de Mayo 1092, San Antonio, Valparaíso, Chile",
    "institution": "Gobernación de San Antonio",
    "hours": "24 hrs.",
    "places": "20",
    "coordinates": {"latitude": -33.591681, "longitude": -71.6126261}
  },
  {
    "name": "Albergue",
    "address": "Abraham Ahumada 99, San Felipe, Valparaíso, Chile",
    "institution": "Gobernación de  San Felipe",
    "hours": "24 hrs.",
    "places": "20",
    "coordinates": {"latitude": -32.7408771, "longitude": -70.7208862}
  },
  {
    "name": "Albergue",
    "address": "Toro Mazote 358, San Felipe, Valparaíso, Chile",
    "institution": "Municipalidad de San Felipe",
    "hours": "24 hrs.",
    "places": "20",
    "coordinates": {"latitude": -32.7544917, "longitude": -70.7228018}
  },
  {
    "name": "Albergue de Refuerzo",
    "address": "Maria Eufrasia 1350, San Felipe, Valparaíso, Chile",
    "institution": "Gobernación de San Felipe",
    "hours": "24 hrs.",
    "places": "20",
    "coordinates": {"latitude": -32.7551405, "longitude": -70.7194602}
  },
  {
    "name": "Albergue Protege",
    "address": "Santiago Severin 156, Valparaíso,valparaiso, Chile",
    "institution": "Moviliza",
    "hours": "24 hrs.",
    "places": "20",
    "coordinates": {"latitude": -33.0372575, "longitude": -71.6327457}
  },
  {
    "name": "Albergue",
    "address": "24 Nte. 1341, Viña del Mar, Valparaíso, Chile",
    "institution": "Municipalidad de Viña del Mar",
    "hours": "24 hrs.",
    "places": "20",
    "coordinates": {"latitude": -33.002209, "longitude": -71.54006}
  },
  {
    "name": "Albergue",
    "address": "José Miguel Carrera 433, Buin, Región Metropolitana, Chile",
    "institution": "Municipalidad de Buin",
    "hours": "24 hrs.",
    "places": "20",
    "coordinates": {"latitude": -33.7219328, "longitude": -70.7431546}
  },
  {
    "name": "Albergue",
    "address": "Galo González 1523, Cerro Navia, Región Metropolitana, Chile",
    "institution": "Municipalidad de Cerro Navia",
    "hours": "24 hrs.",
    "places": "20",
    "coordinates": {"latitude": -33.4244883, "longitude": -70.7365324}
  },
  {
    "name": "Albergue",
    "address": "Av. Diagonal Cardenal José María Caro 1851, Conchalí, Región Metropolitana, Chile",
    "institution": "Fundación Hogar de Cristo",
    "hours": "24 hrs.",
    "places": "20",
    "coordinates": {"latitude": -33.3729999, "longitude": -70.6834102}
  },
  {
    "name": "Albergue",
    "address": "San Fernando 1262, Conchalí, Región Metropolitana, Chile",
    "institution": "Municipalidad de Conchalí",
    "hours": "24 hrs.",
    "places": "20",
    "coordinates": {"latitude": -33.3927164, "longitude": -70.6611875}
  },
  {
    "name": "Albergue C-19 Parroquia Sagrado Corazón",
    "address": "Av Libertador Bernardo O'Higgins 3138, Santiago, Estación Central, Región Metropolitana, Chile",
    "institution": "Fundación Mission Golden",
    "hours": "24 hrs.",
    "places": "20",
    "coordinates": {"latitude": -33.4511178, "longitude": -70.678009}
  },
  {
    "name": "Albergue de Refuerzo",
    "address": "Camino Al Bosque de Santiago 491, Huechuraba, Región Metropolitana, Chile",
    "institution": "Municipalidad de Huechuraba",
    "hours": "24 hrs.",
    "places": "20",
    "coordinates": {"latitude": -33.3745617, "longitude": -70.6343401}
  },
  {
    "name": "Albergue",
    "address": "Trinidad 1767, La Florida, Región Metropolitana, Chile",
    "institution": "Iglesia Volver a Vivir",
    "hours": "24 hrs.",
    "places": "20",
    "coordinates": {"latitude": -33.546484, "longitude": -70.6099086}
  },
  {
    "name": "Albergue",
    "address": "Las Perdices 6987, La Florida, Región Metropolitana, Chile",
    "institution": "Fundación Educere",
    "hours": "24 hrs.",
    "places": "20",
    "coordinates": {"latitude": -33.5206246, "longitude": -70.5470124}
  },
  {
    "name": "Albergue",
    "address": "Padre Esteban Gumucio Vives 498, La Granja, Región Metropolitana, Chile",
    "institution": "Fundación Damián Molokai",
    "hours": "24 hrs.",
    "places": "20",
    "coordinates": {"latitude": -33.520245, "longitude": -70.62770569999999}
  },
  {
    "name": "Albergue",
    "address": "Los Plátanos 658, La Pintana, Región Metropolitana, Chile",
    "institution": "Fundación Mission Golden",
    "hours": "24 hrs.",
    "places": "20",
    "coordinates": {"latitude": -33.6146463, "longitude": -70.62704}
  },
  {
    "name": "Albergue de Refuerzo",
    "address": "Arrieta 551, Villa Alemana, La Reina, Región Metropolitana, Chile",
    "institution": "Municipalidad de Villa Alemana",
    "hours": "24 hrs.",
    "places": "20",
    "coordinates": {"latitude": -33.4625483, "longitude": -70.5604768}
  },
  {
    "name": "Albergue",
    "address": "Av. Alcalde Fernando Castillo Velasco 9770, La Reina, Región Metropolitana, Chile",
    "institution": "Municipalidad de La Reina",
    "hours": "24 hrs.",
    "places": "20",
    "coordinates": {"latitude": -33.4522539, "longitude": -70.5310659}
  },
  {
    "name": "Albergue",
    "address": "Hogar de Cristo, Lampa, Región Metropolitana, Chile",
    "institution": "Municipalidad de Lampa",
    "hours": "24 hrs.",
    "places": "20",
    "coordinates": {"latitude": -33.2918899, "longitude": -70.7704048}
  },
  {
    "name": "Albergue",
    "address": "Buenaventura 3906, Lo Espejo, Región Metropolitana, Chile",
    "institution": "Corporación Caleta Sur",
    "hours": "24 hrs.",
    "places": "20",
    "coordinates": {"latitude": -33.505616, "longitude": -70.6942529}
  },
  {
    "name": "Albergue de Refuerzo",
    "address": "Los Tamarindos 5603, Lo Prado, Región Metropolitana, Chile",
    "institution": "Fundación Betesda",
    "hours": "24 hrs.",
    "places": "20",
    "coordinates": {"latitude": -33.440188, "longitude": -70.7121564}
  },
  {
    "name": "Albergue de Refuerzo",
    "address": "Nueve de Julio 5607, Lo Prado, Región Metropolitana, Chile",
    "institution": "Fundación Betesda",
    "hours": "24 hrs.",
    "places": "20",
    "coordinates": {"latitude": -33.4388077, "longitude": -70.7126187}
  },
  {
    "name": "Albergue",
    "address": "Los Canelos 831, Lo Prado, Región Metropolitana, Chile",
    "institution": "Club Rehabilitador de Alcohólicos Lo Prado",
    "hours": "24 hrs.",
    "places": "20",
    "coordinates": {"latitude": -33.4433319, "longitude": -70.7279835}
  },
  {
    "name": "Albergue",
    "address": "Pdre Demetrio Bravo 110, Melipilla, Región Metropolitana, Chile",
    "institution": "Padre Demetrio",
    "hours": "24 hrs.",
    "places": "20",
    "coordinates": {"latitude": -33.6791573, "longitude": -71.208005}
  },
  {
    "name": "Albergue",
    "address": "José Luis Caro 200, Padre Hurtado, Región Metropolitana, Chile",
    "institution": "Municipalidad de  Padre Hurtado",
    "hours": "24 hrs.",
    "places": "20",
    "coordinates": {"latitude": -33.5678475, "longitude": -70.8171179}
  },
  {
    "name": "Albergue de Refuerzo",
    "address": "José Joaquín Prieto Vial 3391, Pedro Aguirre Cerda, Región Metropolitana, Chile",
    "institution": "Fundacion Rapha",
    "hours": "24 hrs.",
    "places": "20",
    "coordinates": {"latitude": -33.4827295, "longitude": -70.6583187}
  },
  {
    "name": "Albergue",
    "address": "Av. Miraflores 1683, Penaflor, Peñaflor, Región Metropolitana, Chile",
    "institution": "Gobernacion de Talagante",
    "hours": "24 hrs.",
    "places": "20",
    "coordinates": {"latitude": -33.5997167, "longitude": -70.8688085}
  },
  {
    "name": "Albergue",
    "address": "Cruz Almeyda 1051, Penalolen, Peñalolén, Región Metropolitana, Chile",
    "institution": "Fundación Giovanni XXIII",
    "hours": "24 hrs.",
    "places": "20",
    "coordinates": {"latitude": -33.4636698, "longitude": -70.5705717}
  },
  {
    "name": "Albergue",
    "address": "Av. Quebrada de Macul 7120, Penalolen, Peñalolén, Región Metropolitana, Chile",
    "institution": "Fundación Damián Molokai",
    "hours": "24 hrs.",
    "places": "20",
    "coordinates": {"latitude": -33.5064583, "longitude": -70.5594794}
  },
  {
    "name": "Albergue PI (Familiar)",
    "address": "Av. Ricardo Lyon 1085, Providencia, Región Metropolitana, Chile",
    "institution": "Iglesia Volver a Vivir",
    "hours": "24 hrs.",
    "places": "20",
    "coordinates": {"latitude": -33.4312976, "longitude": -70.6064366}
  },
  {
    "name": "Albergue Familias",
    "address": "Tocornal Grez, Puente Alto, Región Metropolitana, Chile",
    "institution": "Municipalidad de Puente Alto",
    "hours": "24 hrs.",
    "places": "20",
    "coordinates": {"latitude": -33.6142375, "longitude": -70.5784875}
  },
  {
    "name": "Albergue",
    "address": "Pedro Lagos 240, Puente Alto, Región Metropolitana, Chile",
    "institution": "Fundación Educere",
    "hours": "24 hrs.",
    "places": "20",
    "coordinates": {"latitude": -33.6113473, "longitude": -70.5722662}
  },
  {
    "name": "Albergue",
    "address": "Sgto Menadier 276, Puente Alto, Región Metropolitana, Chile",
    "institution": "Municipalidad de Puente Alto",
    "hours": "24 hrs.",
    "places": "20",
    "coordinates": {"latitude": -33.6170395, "longitude": -70.5789178}
  },
  {
    "name": "Albergue",
    "address": "Cabo 2¬∞ Job Isaías Burgos Burgos, Quilicura, Región Metropolitana, Chile",
    "institution": "Municipalidad de Quilicura",
    "hours": "24 hrs.",
    "places": "20",
    "coordinates": {"latitude": -33.3664679, "longitude": -70.7479481}
  },
  {
    "name": "Albergue",
    "address": "Aníbal Pinto 303, Quilicura, Región Metropolitana, Chile",
    "institution": "Municipalidad de Quilicura",
    "hours": "24 hrs.",
    "places": "20",
    "coordinates": {"latitude": -33.3713523, "longitude": -70.7434287}
  },
  {
    "name": "Albergue de Refuerzo",
    "address": "San Pablo 3434, Quinta Normal, Región Metropolitana, Chile",
    "institution": "Fundación Mission Golden *",
    "hours": "24 hrs.",
    "places": "20",
    "coordinates": {"latitude": -33.436512, "longitude": -70.6816012}
  },
  {
    "name": "Albergue",
    "address": "Los Cardenales Ote. 420, Recoleta, Región Metropolitana, Chile",
    "institution": "Fundación Cristo Vive",
    "hours": "24 hrs.",
    "places": "20",
    "coordinates": {"latitude": -33.3926704, "longitude": -70.62981169999999}
  },
  {
    "name": "Albergue de Refuerzo",
    "address": "Emiliano Zapata, Recoleta, Región Metropolitana, Chile",
    "institution": "CEBACH",
    "hours": "24 hrs.",
    "places": "20",
    "coordinates": {"latitude": -33.3983951, "longitude": -70.6503934}
  },
  {
    "name": "Albergue",
    "address": "Costanera Nte., Renca, Región Metropolitana, Chile",
    "institution": "Municipalidad de Renca",
    "hours": "24 hrs.",
    "places": "20",
    "coordinates": {"latitude": -33.4126426, "longitude": -70.72747489999999}
  },
  {
    "name": "Albergue",
    "address": "El Cerro, Renca, Región Metropolitana, Chile",
    "institution": "Fundación Cristo de la Noche",
    "hours": "24 hrs.",
    "places": "20",
    "coordinates": {"latitude": -33.3991091, "longitude": -70.7137322}
  },
  {
    "name": "Albergue",
    "address": "Condell 5200, Renca, Región Metropolitana, Chile",
    "institution": "Municipalidad de Renca",
    "hours": "24 hrs.",
    "places": "20",
    "coordinates": {"latitude": -33.4094433, "longitude": -70.7235086}
  },
  {
    "name": "Albergue C-19 San Bernardo",
    "address": "Sta Teresa de Tango 1877, San Bernardo, Región Metropolitana, Chile",
    "institution": "Fundación Mission Golden",
    "hours": "24 hrs.",
    "places": "20",
    "coordinates": {"latitude": -33.6329744, "longitude": -70.73807579999999}
  },
  {
    "name": "Albergue",
    "address": "Sta Teresa 1876, San Bernardo, Región Metropolitana, Chile",
    "institution": "Fundación Rapha",
    "hours": "24 hrs.",
    "places": "20",
    "coordinates": {"latitude": -33.5902539, "longitude": -70.6664428}
  },
  {
    "name": "Albergue",
    "address": "San Petersburgo 6120, San Miguel, Región Metropolitana, Chile",
    "institution": "Pentecostes",
    "hours": "24 hrs.",
    "places": "20",
    "coordinates": {"latitude": -33.5134967, "longitude": -70.6467081}
  },
  {
    "name": "Albergue",
    "address": "Salvador Sanfuentes 2363, Santiago, Región Metropolitana, Chile",
    "institution": "Pentecostes",
    "hours": "24 hrs.",
    "places": "20",
    "coordinates": {"latitude": -33.4501892, "longitude": -70.6690363}
  },
  {
    "name": "Albergue",
    "address": "Rogelio Ugarte 1447, Santiago, Región Metropolitana, Chile",
    "institution": "Pentecostes",
    "hours": "24 hrs.",
    "places": "20",
    "coordinates": {"latitude": -33.4626938, "longitude": -70.6336072}
  },
  {
    "name": "Albergue",
    "address": "Almirante Barroso 547, Santiago, Región Metropolitana, Chile",
    "institution": "Fundación Mission Golden",
    "hours": "24 hrs.",
    "places": "20",
    "coordinates": {"latitude": -33.4379474, "longitude": -70.66242079999999}
  },
  {
    "name": "Albergue",
    "address": "Andes 3241, Santiago, Región Metropolitana, Chile",
    "institution": "ONG Cidets",
    "hours": "24 hrs.",
    "places": "20",
    "coordinates": {"latitude": -33.4336393, "longitude": -70.6798026}
  },
  {
    "name": "Albergue",
    "address": "Agustinas 2113, Santiago, Región Metropolitana, Chile",
    "institution": "Fundación Rapha",
    "hours": "24 hrs.",
    "places": "20",
    "coordinates": {"latitude": -33.4419053, "longitude": -70.6658036}
  },
  {
    "name": "Albergue",
    "address": "Villavicencio, Santiago, Región Metropolitana, Chile",
    "institution": "Corporación Tres Tiempos",
    "hours": "24 hrs.",
    "places": "20",
    "coordinates": {"latitude": -33.4381842, "longitude": -70.6393365}
  },
  {
    "name": "Albergue C-19 Vicaría Esperanza Joven",
    "address": "Moneda 1846, Santiago, Región Metropolitana, Chile",
    "institution": "Fundación Educere",
    "hours": "24 hrs.",
    "places": "20",
    "coordinates": {"latitude": -33.4432013, "longitude": -70.6625759}
  },
  {
    "name": "Albergue",
    "address": "Guardia Marina Ernesto Riquelme 562, Santiago, Región Metropolitana, Chile",
    "institution": "Fundación Mission Golden",
    "hours": "24 hrs.",
    "places": "20",
    "coordinates": {"latitude": -33.4376667, "longitude": -70.6612207}
  },
  {
    "name": "Albergue",
    "address": "San Francisco 1440, Santiago, Región Metropolitana, Chile",
    "institution": "Fundación Educere",
    "hours": "24 hrs.",
    "places": "20",
    "coordinates": {"latitude": -33.4643803, "longitude": -70.6444604}
  },
  {
    "name": "Albergue",
    "address": "Bellavista 509, Talagante, Región Metropolitana, Chile",
    "institution": "Municipalidad de Talagante",
    "hours": "24 hrs.",
    "places": "20",
    "coordinates": {"latitude": -33.6583116, "longitude": -70.92635709999999}
  },
  {
    "name": "Albergue",
    "address": "Veintiuno de Mayo 1696, Talagante, Región Metropolitana, Chile",
    "institution": "Gobernación de Talagante",
    "hours": "24 hrs.",
    "places": "20",
    "coordinates": {"latitude": -33.6723348, "longitude": -70.9253267}
  },
  {
    "name": "Albergue de Refuerzo",
    "address": "Miraflores, Talagante, Región Metropolitana, Chile",
    "institution": "Gobernación de Talagante",
    "hours": "24 hrs.",
    "places": "20",
    "coordinates": {"latitude": -33.64972060000001, "longitude": -70.9278858}
  },
  {
    "name": "Albergue",
    "address": "Dos Ote 45, Huertos Familiares, Tiltil, Región Metropolitana, Chile",
    "institution": "Municipalidad de Tiltil",
    "hours": "24 hrs.",
    "places": "20",
    "coordinates": {"latitude": -33.133295, "longitude": -70.8054721}
  },
  {
    "name": "Albergue de Refuerzo",
    "address": "Antofagasta 125, Graneros, O'Higgins, Chile",
    "institution": "Municipalidad de Graneros",
    "hours": "24 hrs.",
    "places": "20",
    "coordinates": {"latitude": -23.6509279, "longitude": -70.39750219999999}
  },
  {
    "name": "Albergue",
    "address": "Josefina Granger 12, Rancagua, O'Higgins, Chile",
    "institution": "Corporación Retazos",
    "hours": "24 hrs.",
    "places": "20",
    "coordinates": {"latitude": -34.1680213, "longitude": -70.7345176}
  },
  {
    "name": "Albergue",
    "address": "Unión Americana 729, Rancagua, O'Higgins, Chile",
    "institution": "Corporación Retazos",
    "hours": "24 hrs.",
    "places": "20",
    "coordinates": {"latitude": -34.1723283, "longitude": -70.75067419999999}
  },
  {
    "name": "Albergue Protege",
    "address": "Avenida Seminario, Requinoa, O'Higgins, Chile",
    "institution": "Cáritas Rancagua",
    "hours": "24 hrs.",
    "places": "20",
    "coordinates": {"latitude": -34.228375, "longitude": -70.7894082}
  },
  {
    "name": "Albergue",
    "address": "Av. Manso de Velasco, San Fernando, O'Higgins, Chile",
    "institution": "Fundación Caritas Rancagua",
    "hours": "24 hrs.",
    "places": "20",
    "coordinates": {"latitude": -34.581566, "longitude": -70.9859391}
  },
  {
    "name": "Albergue",
    "address": "Carmen 981, Curicó, Maule, Chile",
    "institution": "Gobernación  Curicó",
    "hours": "24 hrs.",
    "places": "20",
    "coordinates": {"latitude": -34.980271, "longitude": -71.2395946}
  },
  {
    "name": "Albergue",
    "address": "Carmen 951, Curicó, Maule, Chile",
    "institution": "Gobernación de Curicó",
    "hours": "24 hrs.",
    "places": "20",
    "coordinates": {"latitude": -34.9804802, "longitude": -71.239502}
  },
  {
    "name": "Albergue Plan Protege",
    "address": "callejón Sarmiento, Curicó, Maule, Chile",
    "institution": "Gobernación de Curicó",
    "hours": "24 hrs.",
    "places": "20",
    "coordinates": {"latitude": -34.997812, "longitude": -71.24752529999999}
  },
  {
    "name": "Albergue",
    "address": "Carmen 1421, Curicó, Maule, Chile",
    "institution": "Gobernación  Curicó",
    "hours": "24 hrs.",
    "places": "20",
    "coordinates": {"latitude": -34.9728923, "longitude": -71.24024709999999}
  },
  {
    "name": "Albergue",
    "address": "Pdte Ibáñez 630, Linares, Maule, Chile",
    "institution": "Gobernación Linares",
    "hours": "24 hrs.",
    "places": "20",
    "coordinates": {"latitude": -35.8410161, "longitude": -71.591839}
  },
  {
    "name": "Albergue",
    "address": "Freire 461, Linares, Maule, Chile",
    "institution": "Gobernación Linares",
    "hours": "24 hrs.",
    "places": "20",
    "coordinates": {"latitude": -35.8460687, "longitude": -71.60060159999999}
  },
  {
    "name": "Albergue Plan Protege",
    "address": "3 Sur 12 1/2 Poniente, Quinta los Maquis S/N, Talca, Maule, Chile",
    "institution": "Gobernación de Talca",
    "hours": "24 hrs.",
    "places": "20",
    "coordinates": {"latitude": -35.4409854, "longitude": -71.6698485}
  },
  {
    "name": "Albergue",
    "address": "Calle 1 Pte. 865, Talca, Maule, Chile",
    "institution": "Gobernación Talca",
    "hours": "24 hrs.",
    "places": "20",
    "coordinates": {"latitude": -35.4296899, "longitude": -71.66706599999999}
  },
  {
    "name": "Cupo de Invierno",
    "address": "Prat 183, Arauco, Bío Bío, Chile",
    "institution": "Municipalidad de Arauco",
    "hours": "24 hrs.",
    "places": "20",
    "coordinates": {"latitude": -37.2402014, "longitude": -73.3229675}
  },
  {
    "name": "Albergue",
    "address": "Arturo Prat 379, Cañete, Bío Bío, Chile",
    "institution": "Municipalidad Cañete",
    "hours": "24 hrs.",
    "places": "20",
    "coordinates": {"latitude": -37.80019679999999, "longitude": -73.397804}
  },
  {
    "name": "Albergue",
    "address": "Cochrane 1064, Concepción, Bío Bío, Chile",
    "institution": "Corporación Sempiterno",
    "hours": "24 hrs.",
    "places": "20",
    "coordinates": {"latitude": -36.8275485, "longitude": -73.04339929999999}
  },
  {
    "name": "Plan Protege Calle Covid - 19",
    "address": "Trinitarias 175, Concepción, Bío Bío, Chile",
    "institution": "Corporación Sempiterno",
    "hours": "24 hrs.",
    "places": "20",
    "coordinates": {"latitude": -36.8298903, "longitude": -73.0485609}
  },
  {
    "name": "Albergue",
    "address": "Juan Antonio Ríos 1388, Coronel, Bío Bío, Chile",
    "institution": "Municipalidad de Coronel",
    "hours": "24 hrs.",
    "places": "20",
    "coordinates": {"latitude": -37.0028179, "longitude": -73.165086}
  },
  {
    "name": "Cupo de Invierno",
    "address": "Colo Colo 775, Curanilahue, Bío Bío, Chile",
    "institution": "Fundación Novo Millennio",
    "hours": "24 hrs.",
    "places": "20",
    "coordinates": {"latitude": -37.4765377, "longitude": -73.3439928}
  },
  {
    "name": "Albergue",
    "address": "18 De Septiembre, Los Alamos, Bío Bío, Chile",
    "institution": "Fundación Novo Millennio",
    "hours": "24 hrs.",
    "places": "20",
    "coordinates": {"latitude": -37.6261237, "longitude": -73.46226639999999}
  },
  {
    "name": "Albergue",
    "address": "Bulnes 746, Los Angeles, Los Ángeles, Bío Bío, Chile",
    "institution": "Municipalidad Los Ángeles",
    "hours": "24 hrs.",
    "places": "20",
    "coordinates": {"latitude": -37.47401430000001, "longitude": -72.3583283}
  },
  {
    "name": "Albergue Plan Protege",
    "address": "Almagro 124, Los Ángeles, Bío Bío, Chile",
    "institution": "Gobernación Biobío",
    "hours": "24 hrs.",
    "places": "20",
    "coordinates": {"latitude": -37.4722349, "longitude": -72.3496735}
  },
  {
    "name": "Cupo de Invierno",
    "address": "Pedro Aguirre Cerda 185, Lota, Bío Bío, Chile",
    "institution": "Fundación Novo Millennio",
    "hours": "24 hrs.",
    "places": "20",
    "coordinates": {"latitude": -37.0958726, "longitude": -73.1545268}
  },
  {
    "name": "Albergue",
    "address": "Echeverría & Alto Horno, Talcahuano, Bío Bío, Chile",
    "institution": "Fundación Novo Millennio",
    "hours": "24 hrs.",
    "places": "20",
    "coordinates": {"latitude": 32.509547, "longitude": -116.304279}
  },
  {
    "name": "Albergue",
    "address": "España 171, Talcahuano, Bío Bío, Chile",
    "institution": "Fundación Novo Millennio",
    "hours": "24 hrs.",
    "places": "20",
    "coordinates": {"latitude": -36.7217381, "longitude": -73.12426049999999}
  },
  {
    "name": "Albergue",
    "address": "Baquedano 621, Tome, Tomé, Bío Bío, Chile",
    "institution": "Municipalidad de Tomé",
    "hours": "24 hrs.",
    "places": "20",
    "coordinates": {"latitude": -36.6170168, "longitude": -72.9622401}
  },
  {
    "name": "Albergue",
    "address": "Las Rosas 241, Angol, Araucanía, Chile",
    "institution": "Gobernacón de  Malleco",
    "hours": "24 hrs.",
    "places": "20",
    "coordinates": {"latitude": -37.8013197, "longitude": -72.6921359}
  },
  {
    "name": "Albergue de Refuerzo",
    "address": "Antifil 555, Temuco, Araucanía, Chile",
    "institution": "Gobernación de Cautín",
    "hours": "24 hrs.",
    "places": "20",
    "coordinates": {"latitude": -38.7397858, "longitude": -72.5769926}
  },
  {
    "name": "Albergue Plan Protege",
    "address": "Andrés Bello 183, Temuco, Araucanía, Chile",
    "institution": "Fundación Cáritas",
    "hours": "24 hrs.",
    "places": "20",
    "coordinates": {"latitude": -38.7401343, "longitude": -72.5993948}
  },
  {
    "name": "Albergue",
    "address": "Manuel Rodriguez 1183, Villarrica, Región de la Araucanía, Chile",
    "institution": "Municipalidad de Villarrica",
    "hours": "24 hrs.",
    "places": "20",
    "coordinates": {"latitude": -39.2902559, "longitude": -72.2272263}
  },
  {
    "name": "Albergue",
    "address": "Cayetano Letelier 614, La Unión, Los Ríos, Chile",
    "institution": "Municipalidad de La Unión",
    "hours": "24 hrs.",
    "places": "20",
    "coordinates": {"latitude": -40.2964601, "longitude": -73.0790075}
  },
  {
    "name": "Albergue",
    "address": "Camilo Henríquez 746, Valdivia, Los Ríos, Chile",
    "institution": "Consejo de acción y cultural Movamos Valdivia",
    "hours": "24 hrs.",
    "places": "20",
    "coordinates": {"latitude": -39.8170527, "longitude": -73.2449424}
  },
  {
    "name": "Albergue Plan Protege",
    "address": "Barros Arana 684, Valdivia, Los Ríos, Chile",
    "institution": "ONG Los Caminos de la Vida",
    "hours": "24 hrs.",
    "places": "20",
    "coordinates": {"latitude": -39.8242871, "longitude": -73.2305027}
  },
  {
    "name": "Albergue",
    "address": "Monjitas 715, Castro, Los Lagos, Chile",
    "institution": "Gobernación de Chiloé",
    "hours": "24 hrs.",
    "places": "20",
    "coordinates": {"latitude": -42.477909, "longitude": -73.762693}
  },
  {
    "name": "Albergue",
    "address": "Guillermo Matta 433, Osorno, Los Lagos, Chile",
    "institution": "Gobernacion Osorno",
    "hours": "24 hrs.",
    "places": "20",
    "coordinates": {"latitude": -40.5719989, "longitude": -73.1199038}
  },
  {
    "name": "Albergue",
    "address": "Cesar Ercilla 1430, Osorno, Los Lagos, Chile",
    "institution": "Municipalidad de Osorno",
    "hours": "24 hrs.",
    "places": "20",
    "coordinates": {"latitude": -40.5843025, "longitude": -73.1199809}
  },
  {
    "name": "Albergue",
    "address": "Cerro La Virgen, Puerto Montt, Los Lagos, Chile",
    "institution": "Fund. Casa de Nazareth",
    "hours": "24 hrs.",
    "places": "20",
    "coordinates": {"latitude": -41.4548186, "longitude": -72.9498113}
  },
  {
    "name": "Albergue Plan Protege Calle",
    "address": "Los Sauces 229, Puerto Montt, Los Lagos, Chile",
    "institution": "Fundación Casa Nazareth",
    "hours": "24 hrs.",
    "places": "20",
    "coordinates": {"latitude": -41.4737701, "longitude": -72.9619472}
  },
  {
    "name": "Albergue",
    "address": "Maratón & Egaña, Puerto Montt, Los Lagos, Chile",
    "institution": "Municipalidad Puerto Montt",
    "hours": "24 hrs.",
    "places": "20",
    "coordinates": {"latitude": 31.7249582, "longitude": -106.4275701}
  },
  {
    "name": "Albergue PI",
    "address": "Av. Eusebio Ibar 1130, Puerto Aysen, Aysén, Chile",
    "institution": "Municipalidad Puerto Aysén",
    "hours": "24 hrs.",
    "places": "20",
    "coordinates": {"latitude": -45.3940718, "longitude": -72.68925899999999}
  },
  {
    "name": "Albergue Plan Protege",
    "address": "Ogana 1150, Coyhaique, Aysén, Chile",
    "institution": "Fundación Hogar de Cristo",
    "hours": "24 hrs.",
    "places": "20",
    "coordinates": {"latitude": -45.5820233, "longitude": -72.0742655}
  },
  {
    "name": "Cupo de Invierno",
    "address": "Almirante Simpson 759, Coyhaique, Aysén, Chile",
    "institution": "Fundación Hogar de Cristo",
    "hours": "24 hrs.",
    "places": "20",
    "coordinates": {"latitude": -45.5781851, "longitude": -72.0667904}
  },
  {
    "name": "Albergue",
    "address": "Lanceros, Puerto Natales, Natales, Magallanes y la Antártica Chilena, Chile",
    "institution": "Municipalidad Puerto Natales",
    "hours": "24 hrs.",
    "places": "20",
    "coordinates": {"latitude": -51.73280519999999, "longitude": -72.4910594}
  },
  {
    "name": "Albergue Protege",
    "address": "Uruguay 1560, Punta Arenas, Magallanes y la Antártica Chilena, Chile",
    "institution": "Fide XII",
    "hours": "24 hrs.",
    "places": "20",
    "coordinates": {"latitude": -53.1410279, "longitude": -70.8813344}
  },
  {
    "name": "Albergue",
    "address": "Capitán Juan Guillermos 1171, Punta Arenas, Magallanes y la Antártica Chilena, Chile",
    "institution": "Fundación Fide XII",
    "hours": "24 hrs.",
    "places": "20",
    "coordinates": {"latitude": -53.1391217, "longitude": -70.91674549999999}
  },
  {
    "name": "Albergue",
    "address": "El Roble 161, Chillan, Chillán, Región del Bío Bío, Chile",
    "institution": "ONG Padre Chango",
    "hours": "24 hrs.",
    "places": "20",
    "coordinates": {"latitude": -36.8225012, "longitude": -73.0132711}
  },
  {
    "name": "Albergue",
    "address": "Libertad 336, Chillan, Chillán, Región del Bío Bío, Chile",
    "institution": "Corporación ADRA",
    "hours": "24 hrs.",
    "places": "20",
    "coordinates": {"latitude": -36.6053692, "longitude": -72.1065222}
  },
  {
    "name": "Albergue Plan Protege Calle",
    "address": "El Roble 257, Chillan, Chillán, Región del Bío Bío, Chile",
    "institution": "ONG  Padre Chango",
    "hours": "24 hrs.",
    "places": "20",
    "coordinates": {"latitude": -36.6073391, "longitude": -72.10847439999999}
  },
  {
    "name": "Albergue",
    "address": "Libertad 244, Chillan, Chillán, Región del Bío Bío, Chile",
    "institution": "Corporación ADRA",
    "hours": "24 hrs.",
    "places": "20",
    "coordinates": {"latitude": -36.6050976, "longitude": -72.107778}
  },
  {
    "name": "Albergue",
    "address": "Chacabuco 140, San Carlos, Bío Bío, Chile",
    "institution": "Gobernación Punilla",
    "hours": "24 hrs.",
    "places": "20",
    "coordinates": {"latitude": -36.4304847, "longitude": -71.9625105}
  }
]
